{
  "name": "Москва",
  "region": "Москва",
  "metro_lines": [
    {
      "line": "Калининская",
      "color": "FFCD1C",
      "stations": [
        {
          "station": "Новокосино",
          "lat": "55.745113",
          "long": "37.864052"
        },
        {
          "station": "Новогиреево",
          "lat": "55.752237",
          "long": "37.814587"
        },
        {
          "station": "Перово",
          "lat": "55.75098",
          "long": "37.78422"
        },
        {
          "station": "Шоссе Энтузиастов",
          "lat": "55.75809",
          "long": "37.751703"
        },
        {
          "station": "Авиамоторная",
          "lat": "55.751933",
          "long": "37.717444"
        },
        {
          "station": "Площадь Ильича",
          "lat": "55.747115",
          "long": "37.680726"
        },
        {
          "station": "Марксистская",
          "lat": "55.740746",
          "long": "37.65604"
        },
        {
          "station": "Третьяковская",
          "lat": "55.741125",
          "long": "37.626142"
        },
        {
          "station": "Петровский парк",
          "lat": "55.79233",
          "long": "37.55952"
        },
        {
          "station": "ЦСКА",
          "lat": "55.78643",
          "long": "37.53502"
        },
        {
          "station": "Хорошевская",
          "lat": "55.77643",
          "long": "37.51981"
        },
        {
          "station": "Шелепиха",
          "lat": "55.75723",
          "long": "37.52571"
        },
        {
          "station": "Деловой центр",
          "lat": "55.7491",
          "long": "37.5395"
        },
        {
          "station": "Парк Победы",
          "lat": "55.736478",
          "long": "37.514401"
        },
        {
          "station": "Минская",
          "lat": "55.7232",
          "long": "37.5038"
        },
        {
          "station": "Ломоносовский проспект",
          "lat": "55.7055",
          "long": "37.5225"
        },
        {
          "station": "Раменки",
          "lat": "55.6961",
          "long": "37.505"
        },
        {
          "station": "Мичуринский проспект",
          "lat": "55.6888",
          "long": "37.485"
        },
        {
          "station": "Озёрная",
          "lat": "55.6698",
          "long": "37.4495"
        },
        {
          "station": "Говорово ",
          "lat": "55.6588",
          "long": "37.4174"
        },
        {
          "station": "Солнцево",
          "lat": "55.649",
          "long": "37.3911"
        },
        {
          "station": "Боровское шоссе",
          "lat": "55.647",
          "long": "37.3701"
        },
        {
          "station": "Новопеределкино",
          "lat": "55.6385",
          "long": "37.3544"
        },
        {
          "station": "Рассказовка",
          "lat": "55.6324",
          "long": "37.3328"
        }
      ]
    },
    {
      "line": "Замоскворецкая",
      "color": "4FB04F",
      "stations": [
        {
          "station": "Ховрино",
          "lat": "55.8777",
          "long": "37.4877"
        },
        {
          "station": "Беломорская",
          "lat": "55.8651",
          "long": "37.4764"
        },
        {
          "station": "Речной вокзал",
          "lat": "55.854152",
          "long": "37.476728"
        },
        {
          "station": "Водный стадион",
          "lat": "55.838978",
          "long": "37.487515"
        },
        {
          "station": "Войковская",
          "lat": "55.818923",
          "long": "37.497791"
        },
        {
          "station": "Сокол",
          "lat": "55.805564",
          "long": "37.515245"
        },
        {
          "station": "Аэропорт",
          "lat": "55.800441",
          "long": "37.530477"
        },
        {
          "station": "Динамо",
          "lat": "55.789704",
          "long": "37.558212"
        },
        {
          "station": "Белорусская",
          "lat": "55.777439",
          "long": "37.582107"
        },
        {
          "station": "Маяковская",
          "lat": "55.769808",
          "long": "37.596192"
        },
        {
          "station": "Тверская",
          "lat": "55.765343",
          "long": "37.603918"
        },
        {
          "station": "Театральная",
          "lat": "55.758808",
          "long": "37.61768"
        },
        {
          "station": "Новокузнецкая",
          "lat": "55.742391",
          "long": "37.62928"
        },
        {
          "station": "Павелецкая",
          "lat": "55.729741",
          "long": "37.638693"
        },
        {
          "station": "Автозаводская",
          "lat": "55.706634",
          "long": "37.657008"
        },
        {
          "station": "Технопарк",
          "lat": "55.695",
          "long": "37.664167"
        },
        {
          "station": "Коломенская",
          "lat": "55.677423",
          "long": "37.663719"
        },
        {
          "station": "Каширская",
          "lat": "55.655745",
          "long": "37.649683"
        },
        {
          "station": "Кантемировская",
          "lat": "55.636107",
          "long": "37.656218"
        },
        {
          "station": "Царицыно",
          "lat": "55.620982",
          "long": "37.669612"
        },
        {
          "station": "Орехово",
          "lat": "55.61269",
          "long": "37.695214"
        },
        {
          "station": "Домодедовская",
          "lat": "55.610131",
          "long": "37.717111"
        },
        {
          "station": "Красногвардейская",
          "lat": "55.614075",
          "long": "37.742697"
        },
        {
          "station": "Алма-Атинская",
          "lat": "55.63349",
          "long": "37.765678"
        }
      ]
    },
    {
      "line": "Калужско-Рижская",
      "color": "F07E24",
      "stations": [
        {
          "station": "Медведково",
          "lat": "55.888103",
          "long": "37.661562"
        },
        {
          "station": "Бабушкинская",
          "lat": "55.870641",
          "long": "37.664341"
        },
        {
          "station": "Свиблово",
          "lat": "55.855558",
          "long": "37.653379"
        },
        {
          "station": "Ботанический сад",
          "lat": "55.844597",
          "long": "37.637811"
        },
        {
          "station": "ВДНХ",
          "lat": "55.819626",
          "long": "37.640751"
        },
        {
          "station": "Алексеевская",
          "lat": "55.807794",
          "long": "37.638699"
        },
        {
          "station": "Рижская",
          "lat": "55.792494",
          "long": "37.636114"
        },
        {
          "station": "Проспект Мира",
          "lat": "55.781827",
          "long": "37.633199"
        },
        {
          "station": "Сухаревская",
          "lat": "55.772315",
          "long": "37.63285"
        },
        {
          "station": "Тургеневская",
          "lat": "55.765371",
          "long": "37.636732"
        },
        {
          "station": "Китай-город",
          "lat": "55.756498",
          "long": "37.631326"
        },
        {
          "station": "Третьяковская",
          "lat": "55.74073",
          "long": "37.625624"
        },
        {
          "station": "Октябрьская",
          "lat": "55.731232",
          "long": "37.612851"
        },
        {
          "station": "Шаболовская",
          "lat": "55.718828",
          "long": "37.607892"
        },
        {
          "station": "Ленинский проспект",
          "lat": "55.70678",
          "long": "37.58499"
        },
        {
          "station": "Академическая",
          "lat": "55.687147",
          "long": "37.5723"
        },
        {
          "station": "Профсоюзная",
          "lat": "55.677671",
          "long": "37.562595"
        },
        {
          "station": "Новые Черемушки",
          "lat": "55.670077",
          "long": "37.554493"
        },
        {
          "station": "Калужская",
          "lat": "55.656682",
          "long": "37.540075"
        },
        {
          "station": "Беляево",
          "lat": "55.642357",
          "long": "37.526115"
        },
        {
          "station": "Коньково",
          "lat": "55.631857",
          "long": "37.519156"
        },
        {
          "station": "Теплый Стан",
          "lat": "55.61873",
          "long": "37.505912"
        },
        {
          "station": "Ясенево",
          "lat": "55.606182",
          "long": "37.5334"
        },
        {
          "station": "Новоясеневская",
          "lat": "55.601947",
          "long": "37.553017"
        }
      ]
    },
    {
      "line": "Сокольническая",
      "color": "E42313",
      "stations": [
        {
          "station": "Бульвар Рокоссовского",
          "lat": "55.814916",
          "long": "37.732227"
        },
        {
          "station": "Черкизовская",
          "lat": "55.802787",
          "long": "37.744863"
        },
        {
          "station": "Преображенская площадь",
          "lat": "55.796322",
          "long": "37.713582"
        },
        {
          "station": "Сокольники",
          "lat": "55.789282",
          "long": "37.679895"
        },
        {
          "station": "Красносельская",
          "lat": "55.780014",
          "long": "37.666097"
        },
        {
          "station": "Комсомольская",
          "lat": "55.774072",
          "long": "37.654565"
        },
        {
          "station": "Красные ворота",
          "lat": "55.768307",
          "long": "37.6478"
        },
        {
          "station": "Чистые пруды",
          "lat": "55.76499",
          "long": "37.638293"
        },
        {
          "station": "Лубянка",
          "lat": "55.759889",
          "long": "37.625336"
        },
        {
          "station": "Охотный ряд",
          "lat": "55.757228",
          "long": "37.615078"
        },
        {
          "station": "Библиотека им.Ленина",
          "lat": "55.752123",
          "long": "37.610388"
        },
        {
          "station": "Кропоткинская",
          "lat": "55.745297",
          "long": "37.604217"
        },
        {
          "station": "Парк культуры",
          "lat": "55.736163",
          "long": "37.595027"
        },
        {
          "station": "Фрунзенская",
          "lat": "55.727462",
          "long": "37.58022"
        },
        {
          "station": "Спортивная",
          "lat": "55.722388",
          "long": "37.562041"
        },
        {
          "station": "Воробьевы горы",
          "lat": "55.709169",
          "long": "37.557293"
        },
        {
          "station": "Университет",
          "lat": "55.69329",
          "long": "37.534511"
        },
        {
          "station": "Проспект Вернадского",
          "lat": "55.676549",
          "long": "37.504584"
        },
        {
          "station": "Юго-Западная",
          "lat": "55.663146",
          "long": "37.482852"
        },
        {
          "station": "Тропарево",
          "lat": "55.6459",
          "long": "37.4725"
        },
        {
          "station": "Румянцево",
          "lat": "55.633",
          "long": "37.4419"
        },
        {
          "station": "Саларьево",
          "lat": "55.6227",
          "long": "37.424"
        }
      ]
    },
    {
      "line": "Арбатско-Покровская",
      "color": "0072BA",
      "stations": [
        {
          "station": "Щелковская",
          "lat": "55.809962",
          "long": "37.798261"
        },
        {
          "station": "Первомайская",
          "lat": "55.794376",
          "long": "37.799364"
        },
        {
          "station": "Измайловская",
          "lat": "55.787713",
          "long": "37.779896"
        },
        {
          "station": "Партизанская",
          "lat": "55.788401",
          "long": "37.74882"
        },
        {
          "station": "Семеновская",
          "lat": "55.783096",
          "long": "37.719289"
        },
        {
          "station": "Электрозаводская",
          "lat": "55.782057",
          "long": "37.7053"
        },
        {
          "station": "Бауманская",
          "lat": "55.772405",
          "long": "37.67904"
        },
        {
          "station": "Площадь Революции",
          "lat": "55.756741",
          "long": "37.62236"
        },
        {
          "station": "Курская",
          "lat": "55.758564",
          "long": "37.659039"
        },
        {
          "station": "Арбатская",
          "lat": "55.752312",
          "long": "37.60349"
        },
        {
          "station": "Смоленская",
          "lat": "55.747713",
          "long": "37.583802"
        },
        {
          "station": "Киевская",
          "lat": "55.743117",
          "long": "37.564132"
        },
        {
          "station": "Парк Победы",
          "lat": "55.735679",
          "long": "37.516865"
        },
        {
          "station": "Славянский бульвар",
          "lat": "55.729542",
          "long": "37.470973"
        },
        {
          "station": "Кунцевская",
          "lat": "55.730634",
          "long": "37.445123"
        },
        {
          "station": "Молодежная",
          "lat": "55.741375",
          "long": "37.415627"
        },
        {
          "station": "Крылатское",
          "lat": "55.756842",
          "long": "37.408139"
        },
        {
          "station": "Строгино",
          "lat": "55.803831",
          "long": "37.402405"
        },
        {
          "station": "Мякинино",
          "lat": "55.823342",
          "long": "37.385214"
        },
        {
          "station": "Волоколамская",
          "lat": "55.835154",
          "long": "37.382453"
        },
        {
          "station": "Митино",
          "lat": "55.846098",
          "long": "37.36122"
        },
        {
          "station": "Пятницкое шоссе",
          "lat": "55.853634",
          "long": "37.353108"
        }
      ]
    },
    {
      "line": "Филевская",
      "color": "1EBCEF",
      "stations": [
        {
          "station": "Кунцевская",
          "lat": "55.730815",
          "long": "37.446754"
        },
        {
          "station": "Пионерская",
          "lat": "55.736027",
          "long": "37.466728"
        },
        {
          "station": "Филевский парк",
          "lat": "55.739665",
          "long": "37.483902"
        },
        {
          "station": "Багратионовская",
          "lat": "55.743544",
          "long": "37.497042"
        },
        {
          "station": "Фили",
          "lat": "55.746763",
          "long": "37.514035"
        },
        {
          "station": "Кутузовская",
          "lat": "55.740544",
          "long": "37.5341"
        },
        {
          "station": "Студенческая",
          "lat": "55.738761",
          "long": "37.54842"
        },
        {
          "station": "Киевская",
          "lat": "55.743168",
          "long": "37.565425"
        },
        {
          "station": "Смоленская",
          "lat": "55.749083",
          "long": "37.582173"
        },
        {
          "station": "Арбатская",
          "lat": "55.752122",
          "long": "37.601553"
        },
        {
          "station": "Александровский сад",
          "lat": "55.752255",
          "long": "37.608775"
        },
        {
          "station": "Выставочная",
          "lat": "55.750243",
          "long": "37.542641"
        },
        {
          "station": "Международная",
          "lat": "55.748324",
          "long": "37.533282"
        }
      ]
    },
    {
      "line": "Серпуховско-Тимирязевская",
      "color": "ADACAC",
      "stations": [
        {
          "station": "Алтуфьево",
          "lat": "55.899034",
          "long": "37.586473"
        },
        {
          "station": "Бибирево",
          "lat": "55.883868",
          "long": "37.603011"
        },
        {
          "station": "Отрадное",
          "lat": "55.864273",
          "long": "37.605066"
        },
        {
          "station": "Владыкино",
          "lat": "55.848236",
          "long": "37.590451"
        },
        {
          "station": "Петровско-Разумовская",
          "lat": "55.836565",
          "long": "37.575512"
        },
        {
          "station": "Тимирязевская",
          "lat": "55.81866",
          "long": "37.574498"
        },
        {
          "station": "Дмитровская",
          "lat": "55.808056",
          "long": "37.581734"
        },
        {
          "station": "Савеловская",
          "lat": "55.794054",
          "long": "37.587163"
        },
        {
          "station": "Менделеевская",
          "lat": "55.781999",
          "long": "37.599141"
        },
        {
          "station": "Цветной бульвар",
          "lat": "55.771653",
          "long": "37.620466"
        },
        {
          "station": "Чеховская",
          "lat": "55.765747",
          "long": "37.608493"
        },
        {
          "station": "Боровицкая",
          "lat": "55.750399",
          "long": "37.60934"
        },
        {
          "station": "Полянка",
          "lat": "55.736795",
          "long": "37.618594"
        },
        {
          "station": "Серпуховская",
          "lat": "55.726548",
          "long": "37.624792"
        },
        {
          "station": "Тульская",
          "lat": "55.70961",
          "long": "37.622569"
        },
        {
          "station": "Нагатинская",
          "lat": "55.682099",
          "long": "37.620917"
        },
        {
          "station": "Нагорная",
          "lat": "55.672962",
          "long": "37.610397"
        },
        {
          "station": "Нахимовский проспект",
          "lat": "55.662379",
          "long": "37.605274"
        },
        {
          "station": "Севастопольская",
          "lat": "55.651451",
          "long": "37.59809"
        },
        {
          "station": "Чертановская",
          "lat": "55.640538",
          "long": "37.606065"
        },
        {
          "station": "Южная",
          "lat": "55.622436",
          "long": "37.609047"
        },
        {
          "station": "Пражская",
          "lat": "55.610962",
          "long": "37.602386"
        },
        {
          "station": "Улица Академика Янгеля",
          "lat": "55.596753",
          "long": "37.601498"
        },
        {
          "station": "Аннино",
          "lat": "55.583477",
          "long": "37.596999"
        },
        {
          "station": "Бульвар Дмитрия Донского",
          "lat": "55.568201",
          "long": "37.576856"
        }
      ]
    },
    {
      "line": "Таганско-Краснопресненская",
      "color": "943E90",
      "stations": [
        {
          "station": "Планерная",
          "lat": "55.859676",
          "long": "37.436808"
        },
        {
          "station": "Сходненская",
          "lat": "55.84926",
          "long": "37.44076"
        },
        {
          "station": "Тушинская",
          "lat": "55.825479",
          "long": "37.437024"
        },
        {
          "station": "Спартак",
          "lat": "55.8182",
          "long": "37.4352"
        },
        {
          "station": "Щукинская",
          "lat": "55.8094",
          "long": "37.463241"
        },
        {
          "station": "Октябрьское поле",
          "lat": "55.793581",
          "long": "37.493317"
        },
        {
          "station": "Полежаевская",
          "lat": "55.777201",
          "long": "37.517895"
        },
        {
          "station": "Беговая",
          "lat": "55.773505",
          "long": "37.545518"
        },
        {
          "station": "Улица 1905 года",
          "lat": "55.763944",
          "long": "37.562271"
        },
        {
          "station": "Баррикадная",
          "lat": "55.760793",
          "long": "37.581242"
        },
        {
          "station": "Пушкинская",
          "lat": "55.765607",
          "long": "37.604356"
        },
        {
          "station": "Кузнецкий мост",
          "lat": "55.761498",
          "long": "37.624423"
        },
        {
          "station": "Китай-город",
          "lat": "55.75436",
          "long": "37.633877"
        },
        {
          "station": "Таганская",
          "lat": "55.739502",
          "long": "37.653605"
        },
        {
          "station": "Пролетарская",
          "lat": "55.731546",
          "long": "37.666917"
        },
        {
          "station": "Волгоградский проспект",
          "lat": "55.725546",
          "long": "37.685197"
        },
        {
          "station": "Текстильщики",
          "lat": "55.709211",
          "long": "37.732117"
        },
        {
          "station": "Кузьминки",
          "lat": "55.705493",
          "long": "37.763295"
        },
        {
          "station": "Рязанский проспект",
          "lat": "55.716139",
          "long": "37.792694"
        },
        {
          "station": "Выхино",
          "lat": "55.715983",
          "long": "37.816788"
        },
        {
          "station": "Лермонтовский проспект",
          "lat": "55.702036",
          "long": "37.851044"
        },
        {
          "station": "Жулебино",
          "lat": "55.684722",
          "long": "37.855833"
        },
        {
          "station": "Котельники",
          "lat": "55.6743",
          "long": "37.8582"
        }
      ]
    },
    {
      "line": "Кольцевая",
      "color": "915133",
      "stations": [
        {
          "station": "Новослободская",
          "lat": "55.779606",
          "long": "37.601252"
        },
        {
          "station": "Проспект Мира",
          "lat": "55.779584",
          "long": "37.633646"
        },
        {
          "station": "Комсомольская",
          "lat": "55.775672",
          "long": "37.654772"
        },
        {
          "station": "Курская",
          "lat": "55.758631",
          "long": "37.661059"
        },
        {
          "station": "Таганская",
          "lat": "55.742396",
          "long": "37.653334"
        },
        {
          "station": "Павелецкая",
          "lat": "55.731414",
          "long": "37.636294"
        },
        {
          "station": "Добрынинская",
          "lat": "55.728994",
          "long": "37.622533"
        },
        {
          "station": "Октябрьская",
          "lat": "55.729264",
          "long": "37.611049"
        },
        {
          "station": "Парк культуры",
          "lat": "55.735221",
          "long": "37.593095"
        },
        {
          "station": "Киевская",
          "lat": "55.74361",
          "long": "37.56735"
        },
        {
          "station": "Краснопресненская",
          "lat": "55.760378",
          "long": "37.577114"
        },
        {
          "station": "Белорусская",
          "lat": "55.775179",
          "long": "37.582303"
        }
      ]
    },
    {
      "line": "Люблинско-Дмитровская",
      "color": "BED12C",
      "stations": [
        {
          "station": "Селигерская",
          "lat": "55.86483",
          "long": "37.55005"
        },
        {
          "station": "Верхние Лихоборы",
          "lat": "55.85566",
          "long": "37.56282"
        },
        {
          "station": "Окружная",
          "lat": "55.848889",
          "long": "37.571111"
        },
        {
          "station": "Петровско-Разумовская",
          "lat": "55.836667",
          "long": "37.575556"
        },
        {
          "station": "Фонвизинская",
          "lat": "55.822778",
          "long": "37.588056"
        },
        {
          "station": "Бутырская ",
          "lat": "55.813333",
          "long": "37.602778"
        },
        {
          "station": "Марьина Роща",
          "lat": "55.793723",
          "long": "37.61618"
        },
        {
          "station": "Достоевская",
          "lat": "55.781667",
          "long": "37.613889"
        },
        {
          "station": "Трубная",
          "lat": "55.76771",
          "long": "37.621926"
        },
        {
          "station": "Сретенский бульвар",
          "lat": "55.766106",
          "long": "37.635688"
        },
        {
          "station": "Чкаловская",
          "lat": "55.755951",
          "long": "37.659293"
        },
        {
          "station": "Римская",
          "lat": "55.747027",
          "long": "37.679996"
        },
        {
          "station": "Крестьянская застава",
          "lat": "55.732278",
          "long": "37.665325"
        },
        {
          "station": "Дубровка",
          "lat": "55.71807",
          "long": "37.676259"
        },
        {
          "station": "Кожуховская",
          "lat": "55.706156",
          "long": "37.68544"
        },
        {
          "station": "Печатники",
          "lat": "55.692921",
          "long": "37.728338"
        },
        {
          "station": "Волжская",
          "lat": "55.690446",
          "long": "37.754314"
        },
        {
          "station": "Люблино",
          "lat": "55.676596",
          "long": "37.761639"
        },
        {
          "station": "Братиславская",
          "lat": "55.658817",
          "long": "37.748415"
        },
        {
          "station": "Марьино",
          "lat": "55.649158",
          "long": "37.743844"
        },
        {
          "station": "Борисово",
          "lat": "55.6325",
          "long": "37.743333"
        },
        {
          "station": "Шипиловская",
          "lat": "55.621667",
          "long": "37.743611"
        },
        {
          "station": "Зябликово",
          "lat": "55.611944",
          "long": "37.745278"
        }
      ]
    },
    {
      "line": "Каховская",
      "color": "88CDCF",
      "stations": [
        {
          "station": "Каширская",
          "lat": "55.654327",
          "long": "37.647705"
        },
        {
          "station": "Варшавская",
          "lat": "55.653294",
          "long": "37.619522"
        },
        {
          "station": "Каховская",
          "lat": "55.652923",
          "long": "37.596573"
        }
      ]
    },
    {
      "line": "Бутовская",
      "color": "BAC8E8",
      "stations": [
        {
          "station": "Бунинская аллея",
          "lat": "55.537977",
          "long": "37.515899"
        },
        {
          "station": "Улица Горчакова",
          "lat": "55.542281",
          "long": "37.532063"
        },
        {
          "station": "Бульвар Адмирала Ушакова",
          "lat": "55.545207",
          "long": "37.542329"
        },
        {
          "station": "Улица Скобелевская",
          "lat": "55.548103",
          "long": "37.552721"
        },
        {
          "station": "Улица Старокачаловская",
          "lat": "55.569194",
          "long": "37.576074"
        },
        {
          "station": "Лесопарковая",
          "lat": "55.581656",
          "long": "37.577816"
        },
        {
          "station": "Битцевский Парк",
          "lat": "55.600066",
          "long": "37.556058"
        }
      ]
    },
    {
      "line": "Московское центральное кольцо",
      "color": "F9BCD1",
      "stations": [
        {
          "station": "Окружная",
          "lat": "55.848889",
          "long": "37.571111"
        },
        {
          "station": "Владыкино",
          "lat": "55.847222",
          "long": "37.591944"
        },
        {
          "station": "Ботанический сад",
          "lat": "55.845556",
          "long": "37.640278"
        },
        {
          "station": "Ростокино",
          "lat": "55.839444",
          "long": "37.667778"
        },
        {
          "station": "Белокаменная",
          "lat": "55.83",
          "long": "37.700556"
        },
        {
          "station": "Бульвар Рокоссовского",
          "lat": "55.817222",
          "long": "37.736944"
        },
        {
          "station": "Локомотив",
          "lat": "55.803219",
          "long": "37.745742"
        },
        {
          "station": "Измайлово",
          "lat": "55.788611",
          "long": "37.742778"
        },
        {
          "station": "Соколиная Гора",
          "lat": "55.77",
          "long": "37.745278"
        },
        {
          "station": "Шоссе Энтузиастов",
          "lat": "55.758633",
          "long": "37.748477"
        },
        {
          "station": "Андроновка",
          "lat": "55.741111",
          "long": "37.734444"
        },
        {
          "station": "Нижегородская",
          "lat": "55.732222",
          "long": "37.72825"
        },
        {
          "station": "Новохохловская",
          "lat": "55.723889",
          "long": "37.716111"
        },
        {
          "station": "Угрешская",
          "lat": "55.718333",
          "long": "37.697778"
        },
        {
          "station": "Дубровка",
          "lat": "55.71268",
          "long": "37.677775"
        },
        {
          "station": "Автозаводская",
          "lat": "55.70631",
          "long": "37.66314"
        },
        {
          "station": "ЗИЛ",
          "lat": "55.698333",
          "long": "37.648333"
        },
        {
          "station": "Верхние Котлы",
          "lat": "55.69",
          "long": "37.618889"
        },
        {
          "station": "Крымская",
          "lat": "55.690038",
          "long": "37.605"
        },
        {
          "station": "Площадь Гагарина",
          "lat": "55.706944",
          "long": "37.585833"
        },
        {
          "station": "Лужники",
          "lat": "55.720278",
          "long": "37.563056"
        },
        {
          "station": "Кутузовская",
          "lat": "55.740833",
          "long": "37.533333"
        },
        {
          "station": "Деловой центр",
          "lat": "55.747222",
          "long": "37.532222"
        },
        {
          "station": "Шелепиха",
          "lat": "55.7575",
          "long": "37.525556"
        },
        {
          "station": "Хорошево",
          "lat": "55.777222",
          "long": "37.507222"
        },
        {
          "station": "Зорге",
          "lat": "55.787778",
          "long": "37.504444"
        },
        {
          "station": "Панфиловская",
          "lat": "55.799167",
          "long": "37.498889"
        },
        {
          "station": "Стрешнево",
          "lat": "55.813611",
          "long": "37.486944"
        },
        {
          "station": "Балтийская",
          "lat": "55.825833",
          "long": "37.496111"
        },
        {
          "station": "Коптево",
          "lat": "55.839637",
          "long": "37.520037"
        },
        {
          "station": "Лихоборы",
          "lat": "55.847222",
          "long": "37.551389"
        }
      ]
    },
    {
      "line": "Монорельс",
      "color": "006DA8",
      "stations": [
        {
          "station": "Тимирязевская",
          "lat": "55.819049",
          "long": "37.578882"
        },
        {
          "station": "Улица Милашенкова",
          "lat": "55.821876",
          "long": "37.591206"
        },
        {
          "station": "Телецентр",
          "lat": "55.821795",
          "long": "37.608975"
        },
        {
          "station": "Улица Академика Королёва",
          "lat": "55.821821",
          "long": "37.627167"
        },
        {
          "station": "Выставочный центр",
          "lat": "55.824086",
          "long": "37.638494"
        },
        {
          "station": "Улица Сергея Эйзенштейна",
          "lat": "55.829305",
          "long": "37.644997"
        }
      ]
    },
    {
      "line": "Большая кольцевая линия",
      "color": "88CDCF",
      "stations": [
        {
          "station": "Петровский парк",
          "lat": "55.79233",
          "long": "37.55952"
        },
        {
          "station": "ЦСКА",
          "lat": "55.78643",
          "long": "37.53502"
        },
        {
          "station": "Хорошевская",
          "lat": "55.77643",
          "long": "37.51981"
        },
        {
          "station": "Шелепиха",
          "lat": "55.75723",
          "long": "37.52571"
        },
        {
          "station": "Деловой центр",
          "lat": "55.7491",
          "long": "37.5395"
        }
      ]
    },
    {
      "line": "Некрасовская",
      "color": "CC0066",
      "stations": [
        {
          "station": "Некрасовка",
          "lat": "55.7029",
          "long": "37.9264"
        }
      ]
    }
  ]
}